,cameraLocation,cameraNumber,cameraProject,Location 1,latitude,longitude,neighborhood
0,Eutaw and Lexington Market,1,Downtown,"(39.290996, -76.621073999999993)",39.290996,-76.621074,NorthEutawStreet
1,Eutaw and Fayette,2,Downtown,"(39.29048796517317, -76.623665143680341)",39.29048796517317,-76.62366514368034,RidgleysDelight
2,Eutaw and Baltimore,3,Downtown,"(39.289324000000001, -76.620985000000005)",39.289324,-76.620985,WestBaltimoreStreet
3,Eutaw and Redwood,4,Downtown,"(39.288677999999997, -76.620947999999999)",39.288678,-76.620948,RidgleysDelight
4,Eutaw and Lombard,5,Downtown,"(39.287528000000002, -76.620853999999994)",39.287528,-76.620854,RidgleysDelight
5,Eutaw and Camden,6,Downtown,"(39.285245000000003, -76.620675000000006)",39.285245,-76.620675,Baltimore
6,Paca and Pratt,7,Downtown,"(39.286256999999999, -76.622129000000001)",39.286257,-76.622129,RidgleysDelight
7,Greene and Lombard,8,Downtown,"(39.287415000000003, -76.623615999999998)",39.287415,-76.623616,RidgleysDelight
8,Greene and Baltimore,9,Downtown,"(39.289222000000002, -76.623694999999998)",39.289222,-76.623695,RidgleysDelight
9,Greene and Fayette,10,Downtown,"(39.290332999999997, -76.623777000000004)",39.290333,-76.623777,RidgleysDelight
10,Greene and Lexington,11,Downtown,"(39.291376999999997, -76.623836999999995)",39.291377,-76.623837,SetonHill
11,Paca and Fayette,12,Downtown,"(39.290370000000003, -76.622411)",39.29037,-76.622411,SetonHill
12,S Howard St and W Lombard St,13,Downtown,"(39.289645356378202, -76.624159236676732)",39.2896453563782,-76.62415923667673,SetonHill
13,S Howard St and W Pratt St,14,Downtown,"(39.286315000000002, -76.619369000000006)",39.286315,-76.619369,RidgleysDelight
14,S Howard St and W Camden St,15,Downtown,"(39.285302000000001, -76.619282999999996)",39.285302,-76.619283,Baltimore
15,S Hanover and W Pratt St,16,Downtown,"(39.286451999999997, -76.616191000000001)",39.286452,-76.616191,InnerHarbor
16,Hopkins Pl and W Lombard St,17,Downtown,"(39.287667999999996, -76.617692000000005)",39.287668,-76.617692,WestLombardStreet
17,Park Ave and W Baltimore St,18,Downtown,"(39.289383999999998, -76.617789999999999)",39.289384,-76.61779,InnerHarbor
18,S Howard St and W Baltimore St,19,Downtown,"(39.289386, -76.619479999999996)",39.289386,-76.61948,SetonHill
19,N Howard St and W Fayette St,20,Downtown,"(39.290447, -76.619489999999999)",39.290447,-76.61949,WestFayetteStreet
20,N Howard St and W Lexington St,21,Downtown,"(39.291601999999997, -76.619664)",39.291602,-76.619664,Baltimore
21,Park Ave and W Lexington St,22,Downtown,"(39.291581000000001, -76.618020000000001)",39.291581,-76.61802,MountVernon
22,N Liberty St and W Lexington St,23,Downtown,"(39.291670000000003, -76.617084000000006)",39.29167,-76.617084,MountVernon
23,N Liberty St and W Fayette St,24,Downtown,"(39.290450999999997, -76.617673999999994)",39.290451,-76.617674,InnerHarbor
24,Park Ave and W Fayette St,25,Downtown,"(39.290500999999999, -76.617985000000004)",39.290501,-76.617985,ParkAvenue
25,N Liberty St and Clay St,26,Downtown,"(39.291982411793313, -76.617325843424382)",39.29198241179331,-76.61732584342438,MountVernon
26,Cathedral St and W Saratoga St,27,Downtown,"(39.293019000000001, -76.616776999999999)",39.293019,-76.616777,MountVernon
27,Cathedral St and W Mulberry St,28,Downtown,"(39.294052999999998, -76.616793000000001)",39.294053,-76.616793,WestMulberryStreet
28,N Charles St and E Mulberry St,29,Downtown,"(39.294150999999999, -76.615488999999997)",39.294151,-76.615489,MountVernon
29,Cathedral St and W Franklin St,30,Downtown,"(39.295048000000001, -76.616872000000001)",39.295048,-76.616872,WestFranklinStreet
30,Park Ave and W Franklin St,31,Downtown,"(39.295011000000002, -76.618324000000001)",39.295011,-76.618324,MountVernon
31,Park Ave and W Mulberry St,32,Downtown,"(39.294016999999997, -76.618223999999998)",39.294017,-76.618224,Baltimore
32,Park Ave and W Saratoga St,33,Downtown,"(39.292954000000002, -76.618157999999994)",39.292954,-76.618158,MountVernon
33,N Howard St and W Saratoga St,34,Downtown,"(39.292895999999999, -76.619658999999999)",39.292896,-76.619659,SetonHill
34,N Howard St and W Mulberry St,35,Downtown,"(39.293987000000001, -76.619772999999995)",39.293987,-76.619773,SetonHill
35,N Howard St and W Franklin St,36,Downtown,"(39.295446379148409, -76.620445568838903)",39.29544637914841,-76.6204455688389,SetonHill
36,N Howard St and W Centre St,37,Downtown,"(39.296208999999998, -76.619917000000001)",39.296209,-76.619917,SetonHill
37,N Eutaw St and George St,38,Downtown,"(39.295789999999997, -76.621317000000005)",39.29579,-76.621317,NorthEutawStreet
38,S Paca St and W Baltimore St,39,Downtown,"(39.289278000000003, -76.622330000000005)",39.289278,-76.62233,WestBaltimoreStreet
39,N Eutaw St and W Saratoga,40,Downtown,"(39.292830000000002, -76.621144999999999)",39.29283,-76.621145,WestSaratogaStreet
40,N Paca St and W Saratoga St,41,Downtown,"(39.292822000000001, -76.622539000000003)",39.292822,-76.622539,SetonHill
41,N Paca St and W Mulberry St,42,Downtown,"(39.293837000000003, -76.622570999999994)",39.293837,-76.622571,SetonHill
42,N Paca St and W Lexington St,43,Downtown,"(39.291428000000003, -76.622440999999995)",39.291428,-76.622441,WestLexingtonStreet
43,N Greene St and W Franklin St,44,Downtown,"(39.294792000000001, -76.623951000000005)",39.294792,-76.623951,SetonHill
44,N Greene St and W Saratoga St,45,Downtown,"(39.292839999999998, -76.623895000000005)",39.29284,-76.623895,SetonHill
45,N Eutaw St and W Franklin St,46,Downtown,"(39.294890000000002, -76.621260000000007)",39.29489,-76.62126,SetonHill
46,N Eutaw St and Druid Hill Ave,47,Downtown,"(39.296695865155179, -76.621270179748535)",39.29669586515518,-76.62127017974854,SetonHill
47,N Eutaw St and W Mulberry St,48,Downtown,"(39.293914999999998, -76.621199000000004)",39.293915,-76.621199,SetonHill
48,N Paca St and George St,49,Downtown,"(39.295791999999999, -76.622656000000006)",39.295792,-76.622656,SetonHill
49,Cathedral St and W Centre St,50,Downtown,"(39.296299405500001, -76.616957187699995)",39.2962994055,-76.6169571877,MountVernon
50,Center Plaza and ,51,Downtown,"(39.291321673796268, -76.616474390029907)",39.29132167379627,-76.61647439002991,CharlesCenter
51,Hopkins Plaza and ,52,Downtown,"(39.288789080651917, -76.616270542144775)",39.28878908065192,-76.61627054214478,InnerHarbor
52,Charles and Baltimore,53,Downtown,"(39.289526000000002, -76.615144000000001)",39.289526,-76.615144,EastBaltimoreStreet
53,S Charles St and E Lombard St,54,Downtown,"(39.287744000000004, -76.614863)",39.287744,-76.614863,InnerHarbor
54,Saint Paul St and E Lexington St,55,Downtown,"(39.291170000000001, -76.613975999999994)",39.29117,-76.613976,InnerHarbor
55,Light St and E Redwood St,56,Downtown,"(39.288820219599998, -76.613717079200001)",39.2888202196,-76.6137170792,InnerHarbor
56,N Calvert St and E Fayette St,57,Downtown,"(39.290387000000003, -76.612448000000001)",39.290387,-76.612448,InnerHarbor
57,S Calvert St and E Redwood St,58,Downtown,"(39.288933, -76.612025000000003)",39.288933,-76.612025,InnerHarbor
58,S Calvert St and E Lombard St,59,Downtown,"(39.287824999999998, -76.612134999999995)",39.287825,-76.612135,SouthCalvertStreet
59,Guilford Ave and E Lexington St,60,Downtown,"(39.291245000000004, -76.611114000000001)",39.291245,-76.611114,InnerHarbor
60,South St and E Baltimore St,61,Downtown,"(39.289701000000001, -76.611047999999997)",39.289701,-76.611048,InnerHarbor
61,South St and Water St,62,Downtown,"(39.288566000000003, -76.610961000000003)",39.288566,-76.610961,InnerHarbor
62,N Holiday St and E Saratoga St,63,Downtown,"(39.292495000000002, -76.610354999999998)",39.292495,-76.610355,EastSaratogaStreet
63,N Holiday St and E Fayette St,64,Downtown,"(39.290497999999999, -76.610275999999999)",39.290498,-76.610276,InnerHarbor
64,CommerceSt and E Lombard St,65,Downtown,"(39.287849000000001, -76.610116000000005)",39.287849,-76.610116,EastLombardStreet
65,CommerceSt and E Pratt St,66,Downtown,"(39.286662, -76.610022000000001)",39.286662,-76.610022,InnerHarbor
66,Custom House Ave and ,67,Downtown,"(39.289210493896313, -76.609755456447601)",39.28921049389631,-76.6097554564476,InnerHarbor
67,S Gay St and E Baltimore St,68,Downtown,"(39.289771999999999, -76.608945000000006)",39.289772,-76.608945,InnerHarbor
68,S Gay St and Water St,69,Downtown,"(39.288623999999999, -76.608832000000007)",39.288624,-76.608832,InnerHarbor
69,E Saratoga St and E Lexington St,70,Downtown,"(39.291377722, -76.607829630400005)",39.291377722,-76.6078296304,Jonestown
70,Market Pl and E Lombard St,71,Downtown,"(39.287903999999997, -76.606943999999999)",39.287904,-76.606944,Baltimore
71,Pearl St and W Lexington St,72,Downtown,"(39.291325000000001, -76.624647999999993)",39.291325,-76.624648,RidgleysDelight
72,N Greene St and W Mulberry St,73,Downtown,"(39.293779000000001, -76.623930000000001)",39.293779,-76.62393,NorthGreeneStreet
73,Druid Hill Ave and Saint Mary St,74,Downtown,"(39.297505383100003, -76.622871458500001)",39.2975053831,-76.6228714585,SetonHill
74,Pennsylvania Ave and Saint Mary St,75,Downtown,"(39.295821990357901, -76.625062823295593)",39.2958219903579,-76.6250628232956,SetonHill
75,N Eutaw St and W Monument St,76,Downtown,"(39.297269, -76.621448000000001)",39.297269,-76.621448,SetonHill
76,Saratoga and Charles,77,Downtown,"(39.292327, -76.615414000000001)",39.292327,-76.615414,MountVernon
77,Saint Paul St and Franklin,78,Downtown,"(39.295109528266927, -76.613870884137015)",39.29510952826693,-76.61387088413701,MountVernon
78,Charles and Fayette,79,Downtown,"(39.290628181254959, -76.614485357323218)",39.29062818125496,-76.61448535732322,InnerHarbor
79,E Fayette St and N Broadway,201,Broadway,"(39.293968, -76.594116999999997)",39.293968,-76.594117,WashingtonHill
80,E Fairmount Ave and N Broadway,202,Broadway,"(39.292631999999998, -76.594029000000006)",39.292632,-76.594029,WashingtonHill
81,E Baltimore St and S Broadway,203,Broadway,"(39.291542, -76.593943999999993)",39.291542,-76.593944,WashingtonHill
82,E Baltimore St and S Ann St,204,Broadway,"(39.291615999999998, -76.591776999999993)",39.291616,-76.591777,ButchersHill
83,E Baltimore St and S Washington St,205,Broadway,"(39.291747000000001, -76.589201000000003)",39.291747,-76.589201,ButchersHill
84,E Lombard St and S Broadway,206,Broadway,"(39.290399000000001, -76.593868999999998)",39.290399,-76.593869,WashingtonHill
85,E Lombard St and S Ann St,207,Broadway,"(39.290498999999997, -76.591710000000006)",39.290499,-76.59171,WashingtonHill
86,E Lombard St and S Durham St,208,Broadway,"(39.290520000000001, -76.591047000000003)",39.29052,-76.591047,FellsProspect
87,E Lombard St and S Chapel St,209,Broadway,"(39.290554999999998, -76.589748999999998)",39.290555,-76.589749,FellsProspect
88,E Lombard St and S Washington St,210,Broadway,"(39.290573000000002, -76.589106000000001)",39.290573,-76.589106,FellsProspect
89,E Pratt St and S Broadway,211,Broadway,"(39.289256999999999, -76.593802999999994)",39.289257,-76.593803,WashingtonHill
90,E Pratt St and N Bond St,212,Broadway,"(39.289139912544471, -76.595711410045624)",39.28913991254447,-76.59571141004562,PerkinsHomes
91,Gough St and S Broadway,213,Broadway,"(39.287623000000004, -76.593704000000002)",39.287623,-76.593704,Baltimore
92,GoughSt and S Regester St,214,Broadway,"(39.287695999999997, -76.592432000000002)",39.287696,-76.592432,WashingtonHill
93,Bank St and S Broadway,215,Broadway,"(39.286608999999999, -76.593637999999999)",39.286609,-76.593638,PerkinsHomes
94,Bank St and S Bond St,216,Broadway,"(39.286512000000002, -76.595439999999996)",39.286512,-76.59544,PerkinsHomes
95,Bank St and Caroline St,217,Broadway,"(39.286467999999999, -76.596843000000007)",39.286468,-76.596843,PerkinsHomes
96,Eastern Ave and S Broadway,218,Broadway,"(39.285578000000001, -76.593557000000004)",39.285578,-76.593557,Baltimore
97,Eastern Ave and S Ann St,219,Broadway,"(39.285685999999998, -76.591406000000006)",39.285686,-76.591406,FellsProspect
98,Fleet St and S Broadway,220,Broadway,"(39.284603873545841, -76.59356564283371)",39.28460387354584,-76.59356564283371,FellsPoint
99,Fleet St and S Broadway St (East),221,Broadway,"(39.284564000000003, -76.593260000000001)",39.284564,-76.59326,FellsPoint
100,Fleet St and S Ann St,222,Broadway,"(39.284725999999999, -76.591352999999998)",39.284726,-76.591353,FellsProspect
101,Fleet St and S Caroline St,223,Broadway,"(39.284424999999999, -76.596723999999995)",39.284425,-76.596724,HarborEast
102,Fleet St and S Eden St,224,Broadway,"(39.284345999999999, -76.598245000000006)",39.284346,-76.598245,HarborEast
103,S Broadway and Aliceanna St (East),225,Broadway,"(39.283534695712298, -76.593184769153595)",39.2835346957123,-76.5931847691536,FellsPoint
104,Aliceanna and Broadway (West),226,Broadway,"(39.283388308477349, -76.5944198688385)",39.28338830847735,-76.5944198688385,FellsPoint
105,ThamesSt and S Broadway,227,Broadway,"(39.281841, -76.593125000000001)",39.281841,-76.593125,ThamesStreet
106,2708 Berea Rd (rear),301,Cherry Hill,"(39.250638607403452, -76.632866403297797)",39.25063860740345,-76.6328664032978,CherryHill
107,1312 Shellbanks (rear),302,Cherry Hill,"(39.251197184331552, -76.631438758982554)",39.25119718433155,-76.63143875898255,CherryHill
108,Berea Rd and Slater Rd,303,Cherry Hill,"(39.250115999999998, -76.633009999999999)",39.250116,-76.63301,CherryHill
109,2711 Berea Rd. (rear),304,Cherry Hill,"(39.250272000000002, -76.632756000000001)",39.250272,-76.632756,CherryHill
110,ShellbanksRd and Blyden Rd,305,Cherry Hill,"(39.250484, -76.631866000000002)",39.250484,-76.631866,CherryHill
111,1301 Slater Rd. (rear),306,Cherry Hill,"(39.249631000000001, -76.632949999999994)",39.249631,-76.63295,CherryHill
112,Bldg1200 (rear),307,Cherry Hill,"(39.250543061206614, -76.631404906511307)",39.25054306120661,-76.6314049065113,CherryHill
113,Fisk Rd and Slater Rd,308,Cherry Hill,"(39.248756, -76.632199999999997)",39.248756,-76.6322,CherryHill
114,1201 Slater Rd (rear),309,Cherry Hill,"(39.249011000000003, -76.631996999999998)",39.249011,-76.631997,CherryHill
115,Giles Rd and Shellbanks Rd,310,Cherry Hill,"(39.249721000000001, -76.630346000000003)",39.249721,-76.630346,CherryHill
116,2701 Giles Rd (rear) and Shellbanks,311,Cherry Hill,"(39.249428669638661, -76.629800209298963)",39.24942866963866,-76.62980020929896,CherryHill
117,Sethlow Rd and Slater Rd,312,Cherry Hill,"(39.248398000000002, -76.630831000000001)",39.248398,-76.630831,CherryHill
118,Spelman Rd and Woodview Rd,313,Cherry Hill,"(39.248578999999999, -76.629266000000001)",39.248579,-76.629266,CherryHill
119,Woodview Rd and Round Rd,314,Cherry Hill,"(39.248612000000001, -76.628517000000002)",39.248612,-76.628517,CherryHill
120,Community Center (rear),315,Cherry Hill,"(39.248153355084071, -76.629756689071655)",39.24815335508407,-76.62975668907166,CherryHill
121,Community Center (rear),316,Cherry Hill,"(39.247172308883442, -76.629873686328978)",39.24717230888344,-76.62987368632898,CherryHill
122,Spelman Rd and Claflin Ct,317,Cherry Hill,"(39.247048999999997, -76.628801999999993)",39.247049,-76.628802,CherryHill
123,2822 Round Rd,318,Cherry Hill,"(39.246384231202612, -76.627666172059293)",39.24638423120261,-76.62766617205929,CherryHill
124,Spelman Rd and S Denham Cir,319,Cherry Hill,"(39.245922537637647, -76.62829926966279)",39.24592253763765,-76.62829926966279,CherryHill
125,2810 Denham Cr (side),320,Cherry Hill,"(39.245531977693837, -76.628935317859728)",39.24553197769384,-76.62893531785973,CherryHill
126,2822 Denham Cr (rear),321,Cherry Hill,"(39.244515154168433, -76.628793776035309)",39.24451515416843,-76.62879377603531,CherryHill
127,2824 N Denham Cir,322,Cherry Hill,"(39.244607999999999, -76.628546999999998)",39.244608,-76.628547,CherryHill
128,2820 Spelman Rd,323,Cherry Hill,"(39.244870362228532, -76.627979725599289)",39.24487036222853,-76.62797972559929,CherryHill
129,Bridgeview Rd and Spelman Rd,324,Cherry Hill,"(39.24516942056394, -76.627357222537825)",39.24516942056394,-76.62735722253782,CherryHill
130,2917 S Denham Cir (rear),325,Cherry Hill,"(39.244194490124123, -76.627524631997332)",39.24419449012412,-76.62752463199733,CherryHill
131,2901 Denham Cir (side),326,Cherry Hill,"(39.244337638991567, -76.626670767401492)",39.24433763899157,-76.62667076740149,CherryHill
132,3301 Round Rd,327,Cherry Hill,"(39.244914000000001, -76.62585)",39.244914,-76.62585,CherryHill
133,911 Coppin Court (rear),328,Cherry Hill,"(39.245027999999998, -76.624986000000007)",39.245028,-76.624986,CherryHill
134,Coppin Ct and Bunche Rd,329,Cherry Hill,"(39.245410999999997, -76.624342999999996)",39.245411,-76.624343,CherryHill
135,Bethune Rd and Bunche Rd,330,Cherry Hill,"(39.245061, -76.623825999999994)",39.245061,-76.623826,CherryHill
136,3411 Round Rd (rear),331,Cherry Hill,"(39.244008002869499, -76.62424372659882)",39.2440080028695,-76.62424372659882,CherryHill
137,3401 Round Rd,332,Cherry Hill,"(39.244001683321713, -76.624478718517977)",39.24400168332171,-76.62447871851798,CherryHill
138,BethuneRd and Spelman Rd,333,Cherry Hill,"(39.243617999999998, -76.626069000000001)",39.243618,-76.626069,CherryHill
139,1019 Bethune Rd (rear),334,Cherry Hill,"(39.242728, -76.626791999999995)",39.242728,-76.626792,CherryHill
140,3430 Spelman Rd,335,Cherry Hill,"(39.242838999999996, -76.625677999999994)",39.242839,-76.625678,CherryHill
141,3456 Spelman Rd,336,Cherry Hill,"(39.242624999999997, -76.625282999999996)",39.242625,-76.625283,CherryHill
142,3446 Spelman Rd(ParkingLot),337,Cherry Hill,"(39.242224999999998, -76.625502999999995)",39.242225,-76.625503,CherryHill
143,Spellman Rd LLC#7076,338,Cherry Hill,"(39.242505390473198, -76.623955070972443)",39.2425053904732,-76.62395507097244,CherryHill
144,3486 Spelman Rd,339,Cherry Hill,"(39.242170774792697, -76.62413024444065)",39.2421707747927,-76.62413024444065,CherryHill
145,Seagull Ave UMBC (rear),340,Cherry Hill,"(39.242914618344123, -76.622294783592224)",39.24291461834412,-76.62229478359222,CherryHill
146,Seagull Ave LLC#7076,341,Cherry Hill,"(39.243299999999998, -76.622775000000004)",39.2433,-76.622775,CherryHill
147,835 Seagull Ave (rear),342,Cherry Hill,"(39.244501652072167, -76.620795428752899)",39.24450165207217,-76.6207954287529,CherryHill
148,835 Seagull Ave,343,Cherry Hill,"(39.244782999999998, -76.621161000000001)",39.244783,-76.621161,CherryHill
149,Seagull Ave and Bethune Rd,344,Cherry Hill,"(39.245257000000002, -76.620875999999996)",39.245257,-76.620876,CherryHill
150,Carver Rd School,345,Cherry Hill,"(39.246365955380391, -76.624683290719986)",39.24636595538039,-76.62468329071999,CherryHill
151,Carver Rd and Bridgeview Rd,346,Cherry Hill,"(39.246813000000003, -76.625399999999999)",39.246813,-76.6254,CherryHill
152,2805 Carver Rd (rear),347,Cherry Hill,"(39.247805999999997, -76.625636)",39.247806,-76.625636,CherryHill
153,2627 Carver Rd,348,Cherry Hill,"(39.247836, -76.626255999999998)",39.247836,-76.626256,CherryHill
154,2609 Carver Rd,349,Cherry Hill,"(39.248641999999997, -76.625821999999999)",39.248642,-76.625822,CherryHill
155,2615 Carver Rd (circle),350,Cherry Hill,"(39.248449999999998, -76.625321999999997)",39.24845,-76.625322,CherryHill
156,Carver Rd Rec Center,351,Cherry Hill,"(39.246398470557722, -76.624347830690354)",39.24639847055772,-76.62434783069035,CherryHill
157,Maint Backyard 1,352,Cherry Hill,"(39.248239556242559, -76.630860418081284)",39.24823955624256,-76.63086041808128,CherryHill
158,Maint Backyard 2,353,Cherry Hill,"(39.248008993870499, -76.630664616823196)",39.2480089938705,-76.6306646168232,CherryHill
159,Community Center (rear),354,Cherry Hill,"(39.24849608195489, -76.629692316055298)",39.24849608195489,-76.6296923160553,CherryHill
160,Maint Garage Doors,355,Cherry Hill,"(39.247959142447137, -76.631044149398804)",39.24795914244714,-76.6310441493988,CherryHill
161,Community Center 2 (rear),356,Cherry Hill,"(39.248111812319252, -76.6305211186409)",39.24811181231925,-76.6305211186409,CherryHill
162,Eastern Ave and S Macon St,401,Greektown,"(39.287016000000001, -76.557327000000001)",39.287016,-76.557327,Greektown
163,Eastern Ave and Oldham St,402,Greektown,"(39.287050000000001, -76.555809999999994)",39.28705,-76.55581,Greektown
164,Eastern Ave and S Lehigh St,403,Greektown,"(39.287142000000003, -76.558053000000001)",39.287142,-76.558053,Baltimore
165,Eastern Ave and S Newkirk St,404,Greektown,"(39.287033999999998, -76.556591999999995)",39.287034,-76.556592,Greektown
166,Eastern Ave and S Ponca St,405,Greektown,"(39.287101999999997, -76.554980999999998)",39.287102,-76.554981,Greektown
167,Guilford Ave and E 28th St,501,Greenmount,"(39.32208, -76.613155000000006)",39.32208,-76.613155,Harwood
168,Greenmount Ave and E 28th St,502,Greenmount,"(39.322150000000001, -76.609508000000005)",39.32215,-76.609508,East28thStreet
169,Greenmount Ave and E 27th St,503,Greenmount,"(39.320922000000003, -76.609532000000002)",39.320922,-76.609532,Harwood
170,Barclay St and E 27th St,504,Greenmount,"(39.320880000000002, -76.611146000000005)",39.32088,-76.611146,Harwood
171,Barclay St and Whitridge Ave,505,Greenmount,"(39.321522999999999, -76.611159000000001)",39.321523,-76.611159,Harwood
172,Greenmount Ave and E Lorraine Ave,506,Greenmount,"(39.320011999999998, -76.609532000000002)",39.320012,-76.609532,Harwood
173,Guilford Ave and E 26th St,507,Greenmount,"(39.319519999999997, -76.612954000000002)",39.31952,-76.612954,Barclay
174,Falls St Alley and E 25th St,508,Greenmount,"(39.318060000000003, -76.612168999999994)",39.31806,-76.612169,OldGoucher
175,Greenmount Ave and E 25th St,509,Greenmount,"(39.318148000000001, -76.609463000000005)",39.318148,-76.609463,Harwood
176,Boone St and E 24th St,510,Greenmount,"(39.316587576869253, -76.608768403530121)",39.31658757686925,-76.60876840353012,Baltimore
177,Cokesbury Ave and E 23rd St,511,Greenmount,"(39.316037000000001, -76.607444999999998)",39.316037,-76.607445,EastBaltimoreMidway
178,Brentwood Ave and E 24th St,512,Greenmount,"(39.316257, -76.610428999999996)",39.316257,-76.610429,Barclay
179,Greenmount Ave and E 23rd St,513,Greenmount,"(39.315491000000002, -76.609523999999993)",39.315491,-76.609524,Barclay
180,Guilford Ave and E 23rd St,514,Greenmount,"(39.315424, -76.612717000000004)",39.315424,-76.612717,Barclay
181,E 23rd St and Boone St,515,Greenmount,"(39.315440000000002, -76.608204000000001)",39.31544,-76.608204,Barclay
182,Greenmount Ave and E 22nd St,516,Greenmount,"(39.314506999999999, -76.609555999999998)",39.314507,-76.609556,Barclay
183,HomewoodAve and E 22nd St,517,Greenmount,"(39.314627999999999, -76.607321999999996)",39.314628,-76.607322,Barclay
184,BarclaySt and 21st1/2 St,518,Greenmount,"(39.314009206095243, -76.611210554838181)",39.31400920609524,-76.61121055483818,Barclay
185,GuilfordAve and E 21st St,519,Greenmount,"(39.313395999999997, -76.612605000000002)",39.313396,-76.612605,Barclay
186,BooneSt and E 21st St,520,Greenmount,"(39.313540000000003, -76.608453999999995)",39.31354,-76.608454,Barclay
187,Greenmount Ave and Worsley St,521,Greenmount,"(39.312736999999998, -76.609537000000003)",39.312737,-76.609537,GreenmountAvenue
188,Barclay St and E 20th St,522,Greenmount,"(39.312432000000001, -76.611052000000001)",39.312432,-76.611052,Barclay
189,Barclay St and Heaver St,523,Greenmount,"(39.312016999999997, -76.61103)",39.312017,-76.61103,GreenmountWest
190,Greenmount Ave and E North Ave,524,Greenmount,"(39.311215950332382, -76.609618663787842)",39.31121595033238,-76.60961866378784,EastNorthAvenue
191,E North Ave and Guilford Ave,525,Greenmount,"(39.311306000000002, -76.611808999999994)",39.311306,-76.611809,GreenmountWest
192,N Calvert St and McAllister St,526,Greenmount,"(39.310576764688527, -76.613631248474121)",39.31057676468853,-76.61363124847412,GreenmountWest
193,Guilford Ave and E Lafayette Ave,527,Greenmount,"(39.310091, -76.612380000000002)",39.310091,-76.61238,GreenmountWest
194,Barclay St and E Lafayette Ave,528,Greenmount,"(39.310032999999997, -76.610892000000007)",39.310033,-76.610892,GreenmountWest
195,Barclay St and Pitman Pl,529,Greenmount,"(39.308463000000003, -76.610750999999993)",39.308463,-76.610751,GreenmountWest
196,Greenmount Ave and E Preston St,530,Greenmount,"(39.304839000000001, -76.608198999999999)",39.304839,-76.608199,GreenmountAvenue
197,Greenmount Ave and E Biddle St,531,Greenmount,"(39.303781999999998, -76.607929999999996)",39.303782,-76.60793,GreenmountWest
198,Greenmount Ave and E Chase St,532,Greenmount,"(39.302734000000001, -76.607641999999998)",39.302734,-76.607642,GreenmountAvenue
199,Greenmount Ave and E Eager St,533,Greenmount,"(39.301361, -76.607269000000002)",39.301361,-76.607269,EastEagerStreet
200,Greenmount Ave and E 29th St,534,Greenmount,"(39.324668506886333, -76.612491308403833)",39.32466850688633,-76.61249130840383,Abell
201,Greenmount Ave and E 30th St,535,Greenmount,"(39.323561803873233, -76.608828638501038)",39.32356180387323,-76.60882863850104,Abell
202,Greenmount Ave and E 31st St,536,Greenmount,"(39.325619074558503, -76.608588963083704)",39.3256190745585,-76.6085889630837,Abell
203,Greenmount Ave and E 32nd St,537,Greenmount,"(39.327658005347253, -76.609099552615518)",39.32765800534725,-76.60909955261552,Abell
204,Greenmount Ave and E 33rd St,538,Greenmount,"(39.328971981558936, -76.609427388260741)",39.32897198155894,-76.60942738826074,Waverly
205,E Monument St and N Chester St,601,Monument,"(39.298647000000003, -76.587868999999998)",39.298647,-76.587869,McElderryPark
206,McElderry St and N Duncan St,602,Monument,"(39.297607091153168, -76.587149798870087)",39.29760709115317,-76.58714979887009,ButchersHill
207,E Monument St and Collington,603,Monument,"(39.298690999999998, -76.586667000000006)",39.298691,-76.586667,ButchersHill
208,E Madison St and N Mederia St,604,Monument,"(39.299697261790918, -76.585991084575653)",39.29969726179092,-76.58599108457565,ButchersHill
209,E Monument St and N Patterson Park Ave,605,Monument,"(39.298669827220472, -76.584993302822113)",39.29866982722047,-76.58499330282211,McElderryPark
210,McElderry St and N Bradford St,606,Monument,"(39.297621620856617, -76.584298610687256)",39.29762162085662,-76.58429861068726,McElderryPark
211,E Monument St and N Montford Ave,607,Monument,"(39.298806999999996, -76.583720999999997)",39.298807,-76.583721,McElderryPark
212,E Madison St and N Port,608,Monument,"(39.299892999999997, -76.583081000000007)",39.299893,-76.583081,McElderryPark
213,E Monument St and N Milton Ave,609,Monument,"(39.298861000000002, -76.582318999999998)",39.298861,-76.582319,McElderryPark
214,McElderry St and N Rose St,610,Monument,"(39.297810506700003, -76.581468880200006)",39.2978105067,-76.5814688802,McElderryPark
215,E Monument St and N Luzerne Ave,611,Monument,"(39.298915000000001, -76.580905000000001)",39.298915,-76.580905,McElderryPark
216,E Madison St and N Glover St,612,Monument,"(39.299996999999998, -76.580263000000002)",39.299997,-76.580263,McElderryPark
217,E Monument St and N Lakewood Ave,613,Monument,"(39.298966, -76.579492999999999)",39.298966,-76.579493,McElderryPark
218,McElderry St and N Belnord Ave,614,Monument,"(39.297950614048887, -76.578631103038788)",39.29795061404889,-76.57863110303879,McElderryPark
219,E Monument St and N Kenwood Ave,615,Monument,"(39.299028999999997, -76.578085000000002)",39.299029,-76.578085,McElderryPark
220,E Madison St and N Streeper St,616,Monument,"(39.300113000000003, -76.577437000000003)",39.300113,-76.577437,McElderryPark
221,McElderry St and N Linwood Ave,617,Monument,"(39.297907025134357, -76.57646656036377)",39.29790702513436,-76.57646656036377,EllwoodPark/Monument
222,E Monument St and N Curley St,618,Monument,"(39.299112000000001, -76.575962000000004)",39.299112,-76.575962,Baltimore-Linwood
223,McElderry St and N Potomac St,619,Monument,"(39.298065813192402, -76.575066447257996)",39.2980658131924,-76.575066447258,EllwoodPark/Monument
224,E Monument St and Decker,620,Monument,"(39.299093256600003, -76.574417352699996)",39.2990932566,-76.5744173527,McElderryPark
225,E Madison St and N Ellwood Ave,621,Monument,"(39.300243000000002, -76.573908000000003)",39.300243,-76.573908,EllwoodPark/Monument
226,E Monument St and N Robinson St,622,Monument,"(39.299225, -76.573121)",39.299225,-76.573121,EllwoodPark/Monument
227,E Madison St and N Curley St,623,Monument,"(39.300151, -76.576040000000006)",39.300151,-76.57604,EllwoodPark/Monument
228,McElderry St and N Robinson St,624,Monument,"(39.298040905285539, -76.573086977005005)",39.29804090528554,-76.573086977005,EllwoodPark/Monument
229,Milton St and E Biddle St,625,Monument,"(39.304777000000001, -76.582694000000004)",39.304777,-76.582694,EastBiddleStreet
230,Montford St and Ashland Ave,626,Monument,"(39.300884552380921, -76.584317046748225)",39.30088455238092,-76.58431704674823,McElderryPark
231,N Collington St and E Jefferson St,627,Monument,"(39.296416312853111, -76.586668586782082)",39.29641631285311,-76.58666858678208,McElderryPark
232,E Jefferson St and N Glover St,628,Monument,"(39.296763545127817, -76.579963795700948)",39.29676354512782,-76.57996379570095,McElderryPark
233,Thomas Ave and Presbury St,701,North Ave West,"(39.307524000000001, -76.658071000000007)",39.307524,-76.658071,BridgeView/Greenlawn
234,Thomas Ave and Westwood Ave,702,North Ave West,"(39.308432000000003, -76.658114999999995)",39.308432,-76.658115,BridgeView/Greenlawn
235,W North Ave and Thomas Ave,703,North Ave West,"(39.309430999999996, -76.658180000000002)",39.309431,-76.65818,Panway/BraddishAvenue
236,N Warwick Ave and Westwood Ave,704,North Ave West,"(39.308489000000002, -76.657154000000006)",39.308489,-76.657154,BridgeView/Greenlawn
237,Moreland Ave and Westwood Ave,705,North Ave West,"(39.308514000000002, -76.655912000000001)",39.308514,-76.655912,Easterwood
238,W North Ave and Moreland Ave,706,North Ave West,"(39.309508000000001, -76.655994000000007)",39.309508,-76.655994,Baltimore
239,N Bentalou St and Westwood Ave,707,North Ave West,"(39.308598000000003, -76.654071000000002)",39.308598,-76.654071,Easterwood
240,N Smallwood St and Westwood Ave,708,North Ave West,"(39.308666000000002, -76.652665999999996)",39.308666,-76.652666,Mondawmin
241,W North Ave and N Smallwood St,709,North Ave West,"(39.309612999999999, -76.652711999999994)",39.309613,-76.652712,NorthSmallwoodStreet
242,N Smallwood St and Ridgehill Ave,710,North Ave West,"(39.311245, -76.652804000000003)",39.311245,-76.652804,Mondawmin
243,N Pulaski St and Westwood Ave,711,North Ave West,"(39.308694000000003, -76.651258999999996)",39.308694,-76.651259,Easterwood
244,W North Ave and N Pulaski St,712,North Ave West,"(39.30968, -76.651338999999993)",39.30968,-76.651339,WestNorthAvenue
245,N Pulaski St and Herbert St,713,North Ave West,"(39.310218999999996, -76.651375999999999)",39.310219,-76.651376,Mondawmin
246,N Pulaski St and Walbrook Ave,714,North Ave West,"(39.310763000000001, -76.651397000000003)",39.310763,-76.651397,Mondawmin
247,W North Ave and N Payson St,715,North Ave West,"(39.309730000000002, -76.649921000000006)",39.30973,-76.649921,Easterwood
248,N Payson St and Herbert St,716,North Ave West,"(39.310392, -76.649955000000006)",39.310392,-76.649955,Easterwood
249,N Payson St and Walbrook Ave,717,North Ave West,"(39.310831, -76.649987999999993)",39.310831,-76.649988,Mondawmin
250,N Payson St and Ridgehill Ave,718,North Ave West,"(39.311579999999999, -76.650011000000006)",39.31158,-76.650011,Easterwood
251,Appleton St and Westwood Ave,719,North Ave West,"(39.308785, -76.648995999999997)",39.308785,-76.648996,Easterwood
252,N Monroe St and Westwood Ave,720,North Ave West,"(39.308812000000003, -76.648123999999996)",39.308812,-76.648124,Easterwood
253,W North Ave and N Monroe St,721,North Ave West,"(39.309812999999998, -76.648179999999996)",39.309813,-76.64818,Easterwood
254,N Monroe St and Walbrook Ave,722,North Ave West,"(39.310882999999997, -76.648236999999995)",39.310883,-76.648237,Mondawmin
255,N Fulton Ave and Westwood Ave,723,North Ave West,"(39.308852999999999, -76.646458999999993)",39.308853,-76.646459,Easterwood
256,W North Ave and N Fulton Ave,724,North Ave West,"(39.309888999999998, -76.646518)",39.309889,-76.646518,Easterwood
257,N Fulton Ave and Walbrook Ave,725,North Ave West,"(39.310847589188782, -76.646633148193359)",39.31084758918878,-76.64663314819336,PennNorth
258,N Mount St and Westwood Ave,726,North Ave West,"(39.308892999999998, -76.644946000000004)",39.308893,-76.644946,GilmorHomes
259,W North Ave and N Carey St,727,North Ave West,"(39.310023999999999, -76.643720000000002)",39.310024,-76.64372,PennNorth
260,W North Ave and Pennsylvania Ave,728,North Ave West,"(39.309890878794228, -76.642392575740814)",39.30989087879423,-76.64239257574081,PennsylvaniaAvenue
261,Cumberland St and N Calhoun St,729,North Ave West,"(39.308031, -76.643488888899995)",39.308031,-76.6434888889,PennNorth
262,Cumberland St and Pennsylvania Ave,730,North Ave West,"(39.309211212161479, -76.641625463962555)",39.30921121216148,-76.64162546396255,PennNorth
263,W North Ave and Division St,731,North Ave West,"(39.310153, -76.640912)",39.310153,-76.640912,PennNorth
264,Whitelock St and Woodbrook Ave,732,North Ave West,"(39.310515000000002, -76.641210000000001)",39.310515,-76.64121,PennNorth
265,Etting St and Whitelock St,733,North Ave West,"(39.310861000000003, -76.640703999999999)",39.310861,-76.640704,PennNorth
266,Whitelock St and Francis St,734,North Ave West,"(39.311185000000002, -76.640141)",39.311185,-76.640141,PennNorth
267,Druid Hill Ave and Whitelock St,735,North Ave West,"(39.311560444069663, -76.639295965433121)",39.31156044406966,-76.63929596543312,SugarHill
268,W North and Bentalou St,737,North Ave West,"(39.309501617701322, -76.653885044455293)",39.30950161770132,-76.6538850444553,WestNorthAvenue
269,W North Ave and McCulloh St,742,North Ave West,"(39.310319, -76.636985999999993)",39.310319,-76.636986,SugarHill
270,Reisterstown Rd and Keyworth Ave,801,Park Heights,"(39.33267, -76.663122000000001)",39.33267,-76.663122,ParkCircle
271,Reisterstown Rd and Shirley Ave,802,Park Heights,"(39.333872999999997, -76.664030999999994)",39.333873,-76.664031,ParkCircle
272,Towonda Ave and Oswego Ave,803,Park Heights,"(39.334465470898927, -76.665989309549332)",39.33446547089893,-76.66598930954933,EastArlington
273,Reisterstown Rd and Grantley Ave,804,Park Heights,"(39.337570999999997, -76.666883999999996)",39.337571,-76.666884,ParkCircle
274,Boarman Ave and Willowdale Ave,805,Park Heights,"(39.337273000000003, -76.669476000000003)",39.337273,-76.669476,EastArlington
275,Park Heights Ave and W Garrison Ave,806,Park Heights,"(39.347399273677432, -76.673582643270493)",39.34739927367743,-76.67358264327049,CentralParkHeights
276,Reisterstown Rd and Laporte St,807,Park Heights,"(39.339444999999998, -76.668406000000004)",39.339445,-76.668406,LangstonHughes
277,Reisterstown Rd and St Ambrose Ave,808,Park Heights,"(39.340273013265822, -76.671485155820847)",39.34027301326582,-76.67148515582085,LangstonHughes
278,W Belvedere Ave and Litchfield Ave,809,Park Heights,"(39.346305000000001, -76.680280999999994)",39.346305,-76.680281,Arlington
279,Park Heights Ave and Woodland,810,Park Heights,"(39.345194999999997, -76.671400000000006)",39.345195,-76.6714,CentralParkHeights
280,W Garrison Ave and Denmore Ave,811,Park Heights,"(39.346727999999999, -76.674801000000002)",39.346728,-76.674801,CentralParkHeights
281,W Garrison Ave and Palmer Ave,812,Park Heights,"(39.348089000000002, -76.672387000000001)",39.348089,-76.672387,CentralParkHeights
282,Pimlico Rd and Sumter Ave,813,Park Heights,"(39.342396999999998, -76.666713999999999)",39.342397,-76.666714,CentralParkHeights
283,Pimlico Rd and W Cold Spring Ln,814,Park Heights,"(39.340200408998818, -76.665105521678925)",39.34020040899882,-76.66510552167892,Parklane
284,Quantico Ave and Pimlico Rd,815,Park Heights,"(39.337417000000002, -76.662932999999995)",39.337417,-76.662933,Greenspring
285,Pimlico Rd and Loyola Northway,816,Park Heights,"(39.338539825106103, -76.663619577884674)",39.3385398251061,-76.66361957788467,PimlicoRoad
286,Pimlico Rd and Rosewood Ave,817,Park Heights,"(39.338999000000001, -76.663973999999996)",39.338999,-76.663974,Greenspring
287,Winner Ave and Avondale Ave,818,Park Heights,"(39.352872860050837, -76.677682399749756)",39.35287286005084,-76.67768239974976,Pimlico
288,Park Heights Ave and Hayward Ave,819,Park Heights,"(39.350004414106863, -76.678873300552368)",39.35000441410686,-76.67887330055237,Arlington
289,Park Heights Ave and Rogers,820,Park Heights,"(39.351854502630033, -76.683323085308075)",39.35185450263003,-76.68332308530807,Pimlico
290,Park Heights Ave and Manhattan Ave,821,Park Heights,"(39.353014931138532, -76.685236841440201)",39.35301493113853,-76.6852368414402,Glen
291,Park Heights Ave and Glen Ave,822,Park Heights,"(39.355662378191383, -76.688167154788971)",39.35566237819138,-76.68816715478897,Glen
292,Park Heights Ave and Taney,823,Park Heights,"(39.357404474299997, -76.691223531999995)",39.3574044743,-76.691223532,Glen
293,Park Heights Ave and W Strathmore Ave,824,Park Heights,"(39.358776344382562, -76.693901717662811)",39.35877634438256,-76.69390171766281,Glen
294,Park Heights Ave and Fords Ln,825,Park Heights,"(39.360161667345743, -76.696571856737137)",39.36016166734574,-76.69657185673714,CrossCountry
295,Park Heights Ave and Clarks Ln,826,Park Heights,"(39.362361951686736, -76.699659079313278)",39.36236195168674,-76.69965907931328,CrossCountry
296,Park Heights Ave and Fallstaff Rd,827,Park Heights,"(39.364946834328506, -76.702818721532822)",39.36494683432851,-76.70281872153282,Fallstaff
297,Park Heights Ave and W Belvedere Ave,828,Park Heights,"(39.348869862497963, -76.675850450992584)",39.34886986249796,-76.67585045099258,CentralParkHeights
298,Park Heights Ave and Virginia Ave,829,Park Heights,"(39.344110560038978, -76.67046993970871)",39.34411056003898,-76.67046993970871,CentralParkHeights
299,Park Heights Ave and Wiley Ave,830,Park Heights,"(39.341017721250637, -76.667569130659103)",39.34101772125064,-76.6675691306591,CentralParkHeights
300,Park Heights Ave and Oswego Ave,831,Park Heights,"(39.335630000000002, -76.66328)",39.33563,-76.66328,ParkCircle
301,Park Heights Ave and Trainor Ave(JCC),832,Park Heights,"(39.353895350633891, -76.686284244060516)",39.35389535063389,-76.68628424406052,Glen
302,Park Heights Ave and Trainor Ave,833,Park Heights,"(39.354996637140353, -76.68757438659668)",39.35499663714035,-76.68757438659668,Glen
303,Park Heights Ave and Menlo Dr,834,Park Heights,"(39.356444252882831, -76.689694672822952)",39.35644425288283,-76.68969467282295,Glen
304,Park Heights Ave and Pinkney Rd,835,Park Heights,"(39.358184255604137, -76.692777872085571)",39.35818425560414,-76.69277787208557,Glen
305,Park Heights Ave and W Strathmore Ave,836,Park Heights,"(39.359001357541032, -76.694333553314209)",39.35900135754103,-76.69433355331421,Glen
306,Park Heights Ave and Bancroft Rd,837,Park Heights,"(39.360900978911133, -76.697849929332733)",39.36090097891113,-76.69784992933273,CrossCountry
307,Park Heights Ave and NBancroft Rd,838,Park Heights,"(39.361738786766793, -76.698879897594452)",39.36173878676679,-76.69887989759445,CrossCountry
308,3500 Northern Pkwy (E&T),839,Park Heights,"(39.353595258045338, -76.684169673767315)",39.35359525804534,-76.68416967376731,Pimlico
309,Park Heights Ave and Oakford Ave,840,Park Heights,"(39.340351364702592, -76.666938371828593)",39.34035136470259,-76.66693837182859,Parklane
310,W North Ave and Bloomingdale Rd,901,Southwest District,"(39.308965000000001, -76.671139999999994)",39.308965,-76.67114,Walbrook
311,W North Ave and N Rosedale St,902,Southwest District,"(39.309002, -76.669337999999996)",39.309002,-76.669338,Walbrook
312,W North Ave and N Longwood St,903,Southwest District,"(39.309078999999997, -76.667563000000001)",39.309079,-76.667563,Walbrook
313,W North Ave and Poplar Grove St,904,Southwest District,"(39.309231965438812, -76.665668785572052)",39.30923196543881,-76.66566878557205,Walbrook
314,W North Ave and N Dukeland St,905,Southwest District,"(39.309212000000002, -76.664032000000006)",39.309212,-76.664032,Walbrook
315,W North Ave and Braddish Ave,906,Southwest District,"(39.309311000000001, -76.661154999999994)",39.309311,-76.661155,Baltimore
316,Westwood Ave (Dead End),907,Southwest District,"(39.308177691165163, -76.664770245552063)",39.30817769116516,-76.66477024555206,Rosemont
317,N Rosedale St and Grayson St,908,Southwest District,"(39.306477999999998, -76.669179)",39.306478,-76.669179,Rosemont
318,Poplar Grove St and Presbury St,909,Southwest District,"(39.307158682628923, -76.665568202733994)",39.30715868262892,-76.665568202734,Winchester
319,Baker St and N Dukeland St,910,Southwest District,"(39.306043000000003, -76.663825000000003)",39.306043,-76.663825,GilmorHomes
320,Bloomingdale Rd and Brighton St,911,Southwest District,"(39.305242, -76.667005000000003)",39.305242,-76.667005,Winchester
321,Poplar Grove St and Pressman St,912,Southwest District,"(39.304660907503369, -76.665592342615128)",39.30466090750337,-76.66559234261513,Winchester
322,Bloomingdale Rd and Belmont Ave,913,Southwest District,"(39.303537035276207, -76.666169017553329)",39.30353703527621,-76.66616901755333,Winchester
323,N Rosedale St and Normount Ct,914,Southwest District,"(39.302957999999997, -76.668977999999996)",39.302958,-76.668978,Rosemont
324,Winchester St and N Longwood St,915,Southwest District,"(39.301316, -76.667342000000005)",39.301316,-76.667342,FranklintownRoad
325,Bloomingdale Rd and Ellicott Driveway,916,Southwest District,"(39.302175496456357, -76.665651351213455)",39.30217549645636,-76.66565135121346,Winchester
326,Ellicott Driveway and N Dukeland St,917,Southwest District,"(39.30243390029608, -76.66352704167366)",39.30243390029608,-76.66352704167366,Winchester
327,Poplar Grove St and Riggs Ave,918,Southwest District,"(39.300189179671143, -76.665129661560059)",39.30018917967114,-76.66512966156006,Winchester
328,Mosher St and N Dukeland St,919,Southwest District,"(39.299255000000002, -76.663437000000002)",39.299255,-76.663437,Mosher
329,Poplar Grove St and W Lafayette Ave,920,Southwest District,"(39.297976559818473, -76.665206104516983)",39.29797655981847,-76.66520610451698,FranklintownRoad
330,N Franklintown Rd and N Longwood St,921,Southwest District,"(39.296934999999998, -76.666835000000006)",39.296935,-76.666835,FranklintownRoad
331,Poplar Grove St and Rayner Ave,922,Southwest District,"(39.296185241301409, -76.66509747505188)",39.29618524130141,-76.66509747505188,Winchester
332,Poplar Grove St and Edmonson Ave,923,Southwest District,"(39.294520498647252, -76.664807796478271)",39.29452049864725,-76.66480779647827,Mosher
333,Edmonson Ave and Braddish Ave,924,Southwest District,"(39.294743642883837, -76.659277081489563)",39.29474364288384,-76.65927708148956,Mosher
334,Edmonson Ave and N Warwick Ave,925,Southwest District,"(39.294821483729272, -76.656215339899063)",39.29482148372927,-76.65621533989906,Mosher
335,Edmonson Ave and Denison St,926,Southwest District,"(39.294188375675823, -76.674053370952606)",39.29418837567582,-76.6740533709526,Allendale
336,Edmonson Ave and Swan Ave,927,Southwest District,"(39.293488836513561, -76.693826615810394)",39.29348883651356,-76.6938266158104,RognelHeights
337,Edmonson Ave and N Loudon Ave,928,Southwest District,"(39.293879084741981, -76.682463437318802)",39.29387908474198,-76.6824634373188,EdmondsonVillage
338,Edmonson Ave and Allendale St,929,Southwest District,"(39.294061753378138, -76.678285896778107)",39.29406175337814,-76.6782858967781,Allendale
339,N Rosedale St and Brighton St,930,Southwest District,"(39.304449753980592, -76.668744746696802)",39.30444975398059,-76.6687447466968,Rosemont
340,Riggs Ave and Dukeland St,931,Southwest District,"(39.30051054141488, -76.664808250587782)",39.30051054141488,-76.66480825058778,Winchester
341,Riggs Ave and Braddish Ave,932,Southwest District,"(39.300825609370811, -76.664776017663257)",39.30082560937081,-76.66477601766326,Winchester
342,W Pratt St and S Stricker St,1001,Tri-District,"(39.285454000000001, -76.640803000000005)",39.285454,-76.640803,MountClare
343,McHenry St and Stricker St,1002,Tri-District,"(39.284448169100003, -76.640737652799999)",39.2844481691,-76.6407376528,MountClare
344,S Stricker St and Ramsay St,1003,Tri-District,"(39.283346000000002, -76.640686000000002)",39.283346,-76.640686,MountClare
345,S Parrish St and McHenry St,1004,Tri-District,"(39.284448169100003, -76.641437709300007)",39.2844481691,-76.6414377093,MountClare
346,S Parrish St and Ramsay St,1005,Tri-District,"(39.283307999999998, -76.641401000000002)",39.283308,-76.641401,MountClare
347,McHenry St and S Gilmor St,1006,Tri-District,"(39.284400419603813, -76.642113626003265)",39.28440041960381,-76.64211362600327,MountClare
348,S Gilmor St and Ramsay St,1007,Tri-District,"(39.283275184067982, -76.642089486122131)",39.28327518406798,-76.64208948612213,MountClare
349,W Pratt St and S Mount St,1008,Tri-District,"(39.285320109761699, -76.643621027469635)",39.2853201097617,-76.64362102746964,MountClare
350,McHenry St and S Mount St,1009,Tri-District,"(39.284365126512903, -76.643553972244263)",39.2843651265129,-76.64355397224426,MountClare
351,S Mount St and Ramsay St,1010,Tri-District,"(39.283258575290013, -76.643511056900024)",39.28325857529001,-76.64351105690002,Maryland
352,W Pratt St and S Fulton Ave,1011,Tri-District,"(39.285251000000002, -76.645048000000003)",39.285251,-76.645048,CarrolltonRidge
353,S Fulton St and McHenry St,1012,Tri-District,"(39.284333985535561, -76.644980907440186)",39.28433398553556,-76.64498090744019,FranklinSquare
354,Wilhelm St and S Fulton Ave,1013,Tri-District,"(39.283769999999997, -76.644948999999997)",39.28377,-76.644949,CarrolltonRidge
355,Ramsay St and S Fulton Ave,1014,Tri-District,"(39.283206672833437, -76.644911170005798)",39.28320667283344,-76.6449111700058,FranklinSquare
356,McHenry St and S Addison St,1015,Tri-District,"(39.284306996677337, -76.645788252353668)",39.28430699667734,-76.64578825235367,CarrolltonRidge
357,W Pratt St and S Monroe St,1016,Tri-District,"(39.285175000000002, -76.646775000000005)",39.285175,-76.646775,CarrolltonRidge
358,S Monroe St and Wilhelm St,1017,Tri-District,"(39.283693999999997, -76.646686111099996)",39.283694,-76.6466861111,CarrolltonRidge
359,S Monroe St and Ramsay St,1018,Tri-District,"(39.283147, -76.646665999999996)",39.283147,-76.646666,CarrolltonRidge
360,S Payson St and McHenry St,1019,Tri-District,"(39.284199041140461, -76.648443639278412)",39.28419904114046,-76.64844363927841,CarrolltonRidge
361,S Payson St and Ramsay St,1020,Tri-District,"(39.283082, -76.648398999999998)",39.283082,-76.648399,CarrolltonRidge
362,S Payson St and Ashton St,1021,Tri-District,"(39.282814999999999, -76.648392999999999)",39.282815,-76.648393,CarrolltonRidge
363,S Pulaski St and McHenry,1022,Tri-District,"(39.284172052199999, -76.649824976900007)",39.2841720522,-76.6498249769,CarrolltonRidge
364,S Pulaski St and Wilhelm St,1023,Tri-District,"(39.283599054451308, -76.649784743785858)",39.28359905445131,-76.64978474378586,CarrolltonRidge
365,S Pulaski St and Ramsay St,1024,Tri-District,"(39.283009, -76.649782999999999)",39.283009,-76.649783,CarrolltonRidge
366,S Pulaski St and Ashton St,1025,Tri-District,"(39.282387, -76.649771999999999)",39.282387,-76.649772,CarrolltonRidge
367,S Smallwood St and Ramsay St,1026,Tri-District,"(39.28293, -76.651205000000004)",39.28293,-76.651205,CarrolltonRidge
368,Smallwood and Ashton,1027,Tri-District,"(39.281931999999998, -76.651190999999997)",39.281932,-76.651191,CarrolltonRidge
369,W Pratt St and S Carey St,1028,Tri-District,"(39.285587, -76.637984000000003)",39.285587,-76.637984,MountClare
370,Lombard and Carrolton,1029,Tri-District,"(39.286544583008506, -76.63597502223854)",39.28654458300851,-76.63597502223854,HollinsMarket
371,Pennsylvania Ave and Baker St,1101,Pennsylvania Ave,"(39.308384151367143, -76.639434413067562)",39.30838415136714,-76.63943441306756,
372,N Carey St and Baker St,1102,Pennsylvania Ave,"(39.307995475867422, -76.640250552088872)",39.30799547586742,-76.64025055208887,
373,Pennsylvania Ave and Gold St,1103,Pennsylvania Ave,"(39.308384151367143, -76.639434413067562)",39.30838415136714,-76.63943441306756,
374,Pennsylvania Ave and Bloom St,1104,Pennsylvania Ave,"(39.306656185290649, -76.637159267198228)",39.30665618529065,-76.63715926719823,
375,N Fremont Ave and Presstman St,1105,Pennsylvania Ave,"(39.305111763845701, -76.635565546719363)",39.3051117638457,-76.63556554671936,
376,Pennsylvania Ave and Presstman St,1106,Pennsylvania Ave,"(39.305111763845701, -76.635565546719363)",39.3051117638457,-76.63556554671936,
377,Division St and Presstman St,1107,Pennsylvania Ave,"(39.306200443138053, -76.637228893298399)",39.30620044313805,-76.6372288932984,
378,Division St and Robert St,1108,Pennsylvania Ave,"(39.305111763845701, -76.635565546719363)",39.3051117638457,-76.63556554671936,
379,Pennsylvania Ave and Robert St,1109,Pennsylvania Ave,"(39.305111763845701, -76.635565546719363)",39.3051117638457,-76.63556554671936,
380,N Fremont Ave and Robert St,1110,Pennsylvania Ave,"(39.305111763845701, -76.635565546719363)",39.3051117638457,-76.63556554671936,
381,Division St and Laurens St,1111,Pennsylvania Ave,"(39.304809930868302, -76.635305211615744)",39.3048099308683,-76.63530521161574,
382,Pennsylvania Ave and Wilson St,1112,Pennsylvania Ave,"(39.303867730110362, -76.633557722093968)",39.30386773011036,-76.63355772209397,
383,Division St and Islamic Way,1113,Pennsylvania Ave,"(39.304445927259223, -76.634215355201974)",39.30444592725922,-76.63421535520197,
384,Pennsylvania Ave and Pitcher St,1114,Pennsylvania Ave,"(39.302954543048138, -76.633127656544033)",39.30295454304814,-76.63312765654403,
385,N Fremont Ave and Pitcher St,1115,Pennsylvania Ave,"(39.302954543048138, -76.633127656544033)",39.30295454304814,-76.63312765654403,
386,Mosher St and Argyle St,1116,Pennsylvania Ave,"(39.300941237258101, -76.634892536297116)",39.3009412372581,-76.63489253629712,
387,Pennsylvania Ave and Mosher St,1118,Pennsylvania Ave,"(39.302488779792881, -76.632307900736237)",39.30248877979288,-76.63230790073624,
388,Pennsylvania Ave and Mosher St,1118,Pennsylvania Ave,"(39.30259353519579, -76.632023671107888)",39.30259353519579,-76.63202367110789,
389,E North Ave and Aisquith,1201,North Ave East,"(39.311186242489399, -76.602505769708756)",39.3111862424894,-76.60250576970876,
390,E North Ave and Harford,1202,North Ave East,"(39.311423565115909, -76.600006371216125)",39.31142356511591,-76.60000637121612,
391,E North Ave and Broadway,1203,North Ave East,"(39.311777042255628, -76.595705091476162)",39.31177704225563,-76.59570509147616,
392,E North Ave and Wolfe,1204,North Ave East,"(39.312000108351818, -76.592325794941374)",39.31200010835182,-76.59232579494137,
393,E North Ave and Washington,1205,North Ave East,"(39.312068683352287, -76.591144511670251)",39.31206868335229,-76.59114451167025,
394,E North Ave and Chester,1206,North Ave East,"(39.312186330473097, -76.589700361483551)",39.3121863304731,-76.58970036148355,
395,E North Ave and Collington,1207,North Ave East,"(39.312229187516991, -76.588435452524962)",39.31222918751699,-76.58843545252496,
396,E North Ave and Belair,1208,North Ave East,"(39.312303202574391, -76.584863648659635)",39.31230320257439,-76.58486364865963,
397,E North Ave and Port,1209,North Ave East,"(39.312303202574391, -76.584863648659635)",39.31230320257439,-76.58486364865963,
398,E North Ave and Milton,1210,North Ave East,"(39.312163957974143, -76.582876963743857)",39.31216395797414,-76.58287696374386,
399,Harford and 20th,1301,Harford Rd,"(39.313487785992642, -76.599725928871052)",39.31348778599264,-76.59972592887105,
400,Harford and Broadway,1302,Harford Rd,"(39.31416178941965, -76.59886228943266)",39.31416178941965,-76.59886228943266,
401,Harford and Darley,1303,Harford Rd,"(39.315068290101223, -76.597804931181258)",39.31506829010122,-76.59780493118126,
402,Harford and Cliftview,1304,Harford Rd,"(39.315982284515293, -76.596817593295881)",39.31598228451529,-76.59681759329588,
403,Harford and 25th,1305,Harford Rd,"(39.316861084164962, -76.596463813589111)",39.31686108416496,-76.59646381358911,
404,Harford (Harbor City School),1306,Harford Rd,"(39.318459689166879, -76.594697469018016)",39.31845968916688,-76.59469746901802,
405,Harford and Montpelier,1307,Harford Rd,"(39.318459689166879, -76.594697469018016)",39.31845968916688,-76.59469746901802,
406,Harford and Homestead,1308,Harford Rd,"(39.318459689166879, -76.594697469018016)",39.31845968916688,-76.59469746901802,
407,Harford and Abbotston,1309,Harford Rd,"(39.320478594226863, -76.592769787424359)",39.32047859422686,-76.59276978742436,
408,Harford and Alameda,1310,Harford Rd,"(39.320478594226863, -76.592769787424359)",39.32047859422686,-76.59276978742436,
409,Harford and Tivoly,1311,Harford Rd,"(39.322129844480479, -76.591145882793526)",39.32212984448048,-76.59114588279353,
410,Harford and Fenwick,1312,Harford Rd,"(39.322585972163317, -76.590789523428185)",39.32258597216332,-76.59078952342819,
411,Harford and Hugo,1313,Harford Rd,"(39.323849590957131, -76.589829681328524)",39.32384959095713,-76.58982968132852,
412,Belair and Ravenwood,1401,Belair Rd,"(39.31532303105417, -76.582190468824152)",39.31532303105417,-76.58219046882415,
413,Belair and Elmora,1402,Belair Rd,"(39.316015002473243, -76.579655350693287)",39.31601500247324,-76.57965535069329,
414,Belair and Lyndale,1403,Belair Rd,"(39.315646208380038, -76.579763307694563)",39.31564620838004,-76.57976330769456,
415,Belair and Elmley,1404,Belair Rd,"(39.316651146669983, -76.578579370095468)",39.31665114666998,-76.57857937009547,
416,Belair (across from shopping center),1405,Belair Rd,"(39.318271431784339, -76.577467734275231)",39.31827143178434,-76.57746773427523,
417,Belair and Cliftmont,1406,Belair Rd,"(39.319629088210981, -76.576560273839576)",39.31962908821098,-76.57656027383958,
418,Belair and Mareco,1407,Belair Rd,"(39.320451434005207, -76.575053714978438)",39.32045143400521,-76.57505371497844,
419,Belair and Clifton Park Terrace,1408,Belair Rd,"(39.321314464994281, -76.574454905190024)",39.32131446499428,-76.57445490519002,
420,Belair and Erdman,1409,Belair Rd,"(39.32177331358092, -76.573810873579617)",39.32177331358092,-76.57381087357962,
421,Belair and Sheldon,1410,Belair Rd,"(39.328073611119592, -76.565013598755243)",39.32807361111959,-76.56501359875524,
422,Rusty Scupper,1901,Inner Harbor,"(39.281919479606877, -76.60772904753685)",39.28191947960688,-76.60772904753685,
423,Rash Field,1902,Inner Harbor,"(39.281859271602698, -76.609304845333099)",39.2818592716027,-76.6093048453331,
424,Carousel,1903,Inner Harbor,"(39.281846814767782, -76.610000878572464)",39.28184681476778,-76.61000087857246,
425,Science Center,1904,Inner Harbor,"(39.2820066773143, -76.611624956130981)",39.2820066773143,-76.61162495613098,
426,Spirit Of Baltimore,1905,Inner Harbor,"(39.285747000000001, -76.610810000000001)",39.285747,-76.61081,
427,Visitor Center,1906,Inner Harbor,"(39.284265475336689, -76.612484604120255)",39.28426547533669,-76.61248460412025,
428,Light Street Food Hall,1907,Inner Harbor,"(39.285390694963333, -76.61190927028656)",39.28539069496333,-76.61190927028656,
429,Constellation,1908,Inner Harbor,"(39.285951221980007, -76.611388921737671)",39.28595122198001,-76.61138892173767,
430,Constellation Pier,1909,Inner Harbor,"(39.285254714584973, -76.610821634531021)",39.28525471458497,-76.61082163453102,
431,Trade Center,1910,Inner Harbor,"(39.286001046386623, -76.610176563262939)",39.28600104638662,-76.61017656326294,
432,Pier 5 Hotel,1911,Inner Harbor,"(39.283756836916083, -76.606008410453796)",39.28375683691608,-76.6060084104538,
433,Pier 5 Lighthouse,1912,Inner Harbor,"(39.28337483665311, -76.605211794376373)",39.28337483665311,-76.60521179437637,
434,Pier 6 Pavillion,1913,Inner Harbor,"(39.283760999999998, -76.604619999999997)",39.283761,-76.60462,
435,Charles and Conway,1920,Federal Reserve,"(39.284298515827047, -76.614453475966073)",39.28429851582705,-76.61445347596607,
436,Sharp and Conway,1921,Federal Reserve,"(39.283978495492491, -76.617647055555054)",39.28397849549249,-76.61764705555505,
437,182 Hamburgst,1922,Federal Reserve,"(39.278279435050841, -76.61803074859877)",39.27827943505084,-76.61803074859877,
438,Pratt and Sharp,1923,Federal Reserve,"(39.286162239365261, -76.618011900419958)",39.28616223936526,-76.61801190041996,
439,Pratt and Light,1924,Federal Reserve,"(39.286269232737787, -76.613997565987503)",39.28626923273779,-76.6139975659875,
440,NE Market FoodCt,1941,Northeast Market,"(39.298141, -76.587517)",39.298141,-76.587517,
441,NE Market North,1942,Northeast Market,"(39.298141, -76.587517)",39.298141,-76.587517,
442,NE Market South,1943,Northeast Market,"(39.298141, -76.587517)",39.298141,-76.587517,
443,NE Market Middle,1944,Northeast Market,"(39.298141, -76.587517)",39.298141,-76.587517,
444,McElderry & Chester,1945,Northeast Market,"(39.297525, -76.587779999999995)",39.297525,-76.58778,
445,Avenue Market Front,1961,Avenue Market,"(39.303537, -76.635647)",39.303537,-76.635647,
446,Avenue Market Middle,1962,Avenue Market,"(39.303537, -76.635647)",39.303537,-76.635647,
447,Avenue Market Back,1963,Avenue Market,"(39.303537, -76.635647)",39.303537,-76.635647,
448,Pennsylvania and  Laurens,1964,Avenue Market,"(39.304338999999999, -76.635589999999993)",39.304339,-76.63559,
449,Fremont and Laurens,1965,Avenue Market,"(39.303421999999998, -76.636830000000003)",39.303422,-76.63683,
450,Avenue Market Parking Lot,1966,Avenue Market,"(39.303664891386482, -76.634952407020364)",39.30366489138648,-76.63495240702036,
451,Southwest Corner,1980,Hollins Market,"(39.287529, -76.635958)",39.287529,-76.635958,
452,Northwest Corner,1981,Hollins Market,"(39.287529, -76.635958)",39.287529,-76.635958,
453,Aisle Cam 1,1982,Hollins Market,"(39.287529, -76.635958)",39.287529,-76.635958,
454,Aisle Cam 2,1983,Hollins Market,"(39.287529, -76.635958)",39.287529,-76.635958,
455,Aisle Cam 3,1984,Hollins Market,"(39.287529, -76.635958)",39.287529,-76.635958,
456,Hollins St and Carrollton,1985,Hollins Market,"(39.287618999999999, -76.636679999999998)",39.287619,-76.63668,
457,Boyd St Side Entrance,1986,Hollins Market,"(39.287292560487053, -76.635222600479935)",39.28729256048705,-76.63522260047993,
458,Arlington Ave East Entrance,1987,Hollins Market,"(39.287365569154261, -76.634676307072198)",39.28736556915426,-76.6346763070722,
459,553 Dolphin St,2001,McCulloh,"(39.299709886899997, -76.628770388800007)",39.2997098869,-76.6287703888,
460,569 Dolphin St,2002,McCulloh,"(39.2994741658, -76.628246647200001)",39.2994741658,-76.6282466472,
461,520 Hoffman St,2003,McCulloh,"(39.299569032500003, -76.627819812599995)",39.2995690325,-76.6278198126,
462,517 Dolphin St,2004,McCulloh,"(39.300194856899999, -76.628212820200005)",39.3001948569,-76.6282128202,
463,534 Preston St,2005,McCulloh,"(39.2994445713, -76.627014840900003)",39.2994445713,-76.6270148409,
464,503 Dolphin St,2006,McCulloh,"(39.300440885, -76.627710906700003)",39.300440885,-76.6277109067,
465,535 Hoffman St,2007,McCulloh,"(39.299036022700001, -76.627951580900003)",39.2990360227,-76.6279515809,
466,570 Preston St,2008,McCulloh,"(39.298552511899999, -76.627312922300007)",39.2985525119,-76.6273129223,
467,556 Preston St,2009,McCulloh,"(39.298862438299999, -76.626914038199999)",39.2988624383,-76.6269140382,
468,516 Preston St,2010,McCulloh,"(39.299079561500001, -76.626522870900004)",39.2990795615,-76.6265228709,
469,514 Preston St,2011,McCulloh,"(39.299364911700003, -76.626601136299996)",39.2993649117,-76.6266011363,
470,1020 Druid Hill Rd,2012,McCulloh,"(39.299944205000003, -76.626479001500002)",39.299944205,-76.6264790015,
471,1135 Tiffany Ct,2013,McCulloh,"(39.302018245500001, -76.625956896399998)",39.3020182455,-76.6259568964,
472,1101 Tiffany Ct,2014,McCulloh,"(39.301602996699998, -76.625438251999995)",39.3016029967,-76.625438252,
473,1035 Tiffany Ct,2015,McCulloh,"(39.300995861192078, -76.625379849189699)",39.30099586119208,-76.6253798491897,
474,1001 Tiffany Ct,2016,McCulloh,"(39.300815108099997, -76.624463592400005)",39.3008151081,-76.6244635924,
475,440 Oxford Ct,2017,McCulloh,"(39.300550491700001, -76.625118487500004)",39.3005504917,-76.6251184875,
476,443 Manse Ct,2018,McCulloh,"(39.301373687800002, -76.626496719299993)",39.3013736878,-76.6264967193,
477,1134 Stoddard Ct,2019,McCulloh,"(39.3011098319, -76.627157996400001)",39.3011098319,-76.6271579964,
478,1100 Stoddard Ct,2020,McCulloh,"(39.300701899499998, -76.626653211600001)",39.3007018995,-76.6266532116,
479,1034 Stoddard Ct,2021,McCulloh,"(39.300325881200003, -76.626190746999995)",39.3003258812,-76.626190747,
480,1000 Stoddard Ct,2022,McCulloh,"(39.299891022700002, -76.625654182000005)",39.2998910227,-76.625654182,
481,442 Walton Ct,2023,McCulloh,"(39.299978103100003, -76.624747493800001)",39.2999781031,-76.6247474938,
482,900 Stoddard Ct,2024,McCulloh,"(39.2989138943, -76.624478359600005)",39.2989138943,-76.6244783596,
483,1638 Bruce Ct (rear),2101,Gilmore,"(39.307301043898839, -76.644212532490343)",39.30730104389884,-76.64421253249034,
484,1638 Bruce Ct,2102,Gilmore,"(39.307275671799999, -76.645597160999998)",39.3072756718,-76.645597161,
485,1600 Bruce Ct (rear),2103,Gilmore,"(39.307301043898839, -76.644212532490343)",39.30730104389884,-76.64421253249034,
486,1605 Bruce Ct,2104,Gilmore,"(39.307301043898839, -76.644212532490343)",39.30730104389884,-76.64421253249034,
487,1601 Bakbury Ct,2105,Gilmore,"(39.307427718714969, -76.643890288047984)",39.30742771871497,-76.64389028804798,
488,1679 Bakbury Ct,2106,Gilmore,"(39.307862028199999, -76.645106384599998)",39.3078620282,-76.6451063846,
489,1678 Mountmor Ct,2107,Gilmore,"(39.307759654714587, -76.642965181000818)",39.30775965471459,-76.64296518100082,
490,1600 Mountmor Ct,2108,Gilmore,"(39.3068001197, -76.6447164386)",39.3068001197,-76.6447164386,
491,1600 Vincent Ct,2109,Gilmore,"(39.306818836600002, -76.644299108799999)",39.3068188366,-76.6442991088,
492,1606 Vincent Ct,2110,Gilmore,"(39.3074507205, -76.644448813099999)",39.3074507205,-76.6444488131,
493,1679 Vincent Ct,2111,Gilmore,"(39.307471450870644, -76.643610028536614)",39.30747145087064,-76.64361002853661,
494,1641 Vincent Ct,2112,Gilmore,"(39.307393215899999, -76.644124656900004)",39.3073932159,-76.6441246569,
495,1600 Spray Ct,2113,Gilmore,"(39.30586749958497, -76.64405307738943)",39.30586749958497,-76.64405307738943,
496,1605-2 Spray Ct,2114,Gilmore,"(39.305785955600001, -76.644515020499995)",39.3057859556,-76.6445150205,
497,1601-8 Spray Ct,2115,Gilmore,"(39.305900989800001, -76.644091696100006)",39.3059009898,-76.6440916961,
498,1500 Pressman Ct,2116,Gilmore,"(39.305455128600002, -76.643905963899996)",39.3054551286,-76.6439059639,
499,1519 Presser Ct,2117,Gilmore,"(39.305726004100002, -76.643559925299996)",39.3057260041,-76.6435599253,
500,Prestman St and Gilmor St,2118,Gilmore,"(39.305304986490292, -76.643798951040964)",39.30530498649029,-76.64379895104096,
501,1638 Balmor Ct,2119,Gilmore,"(39.305191825999998, -76.644086363100001)",39.305191826,-76.6440863631,
502,1458 Mountmor Ct,2120,Gilmore,"(39.305247873799999, -76.6446301159)",39.3052478738,-76.6446301159,
503,1428 Mountmor Ct,2121,Gilmore,"(39.304809059500002, -76.644510936000003)",39.3048090595,-76.644510936,
504,1629 Balmor Ct (rear),2122,Gilmore,"(39.305304986490292, -76.643798951040964)",39.30530498649029,-76.64379895104096,
505,1401 Mountmor Ct,2123,Gilmore,"(39.3044347827, -76.644281285100007)",39.3044347827,-76.6442812851,
506,1639 Booker Ct,2124,Gilmore,"(39.304472998199998, -76.644048334900006)",39.3044729982,-76.6440483349,
507,1601 Booker Ct,2125,Gilmore,"(39.304574795999997, -76.643408585399996)",39.304574796,-76.6434085854,
508,1629 Lorman Ct,2126,Gilmore,"(39.304000985000002, -76.643863016300003)",39.304000985,-76.6438630163,
509,1631 Lorman Ct,2127,Gilmore,"(39.3040667402, -76.644225277199993)",39.3040667402,-76.6442252772,
510,1649 Lorman Ct,2128,Gilmore,"(39.303959339698046, -76.643873696150877)",39.30395933969805,-76.64387369615088,
511,1658 Delano Ct,2129,Gilmore,"(39.303491577820743, -76.643880475942325)",39.30349157782074,-76.64388047594232,
512,1628 Delano Ct,2130,Gilmore,"(39.303760068300001, -76.643845530500002)",39.3037600683,-76.6438455305,
513,1600 Delano Ct,2131,Gilmore,"(39.303491577820743, -76.643880475942325)",39.30349157782074,-76.64388047594232,
514,1521 Mountmor Ct,2132,Gilmore,"(39.30729341320874, -76.644573904997316)",39.30729341320874,-76.64457390499732,
515,800 Abbott Ct,2201,Latrobe,"(39.301252981099999, -76.606166438399995)",39.3012529811,-76.6061664384,
516,856 Abbott Ct,2202,Latrobe,"(39.301329715000001, -76.6050176161)",39.301329715,-76.6050176161,
517,818 Webb Ct,2203,Latrobe,"(39.301008857200003, -76.605686922800004)",39.3010088572,-76.6056869228,
518,800 McAleer Ct,2204,Latrobe,"(39.3002994414, -76.605957631400003)",39.3002994414,-76.6059576314,
519,834 McAleer Ct,2205,Latrobe,"(39.300311914200002, -76.605297114799995)",39.3003119142,-76.6052971148,
520,864 McAleer Ct,2206,Latrobe,"(39.300041873700003, -76.604740619899999)",39.3000418737,-76.6047406199,
521,831 McAleer Ct,2207,Latrobe,"(39.299977143500001, -76.6052816304)",39.2999771435,-76.6052816304,
522,859 Homewood Ave,2208,Latrobe,"(39.299950172099997, -76.605899537599996)",39.2999501721,-76.6058995376,
523,820 Hillman Ct,2209,Latrobe,"(39.299387499600002, -76.605709727499999)",39.2993874996,-76.6057097275,
524,819 Hillman Ct,2210,Latrobe,"(39.299349693300002, -76.606075805900005)",39.2993496933,-76.6060758059,
525,819 Homewood Ave,2211,Latrobe,"(39.301308069100003, -76.604304248700004)",39.3013080691,-76.6043042487,
526,916 Webb Ct,2212,Latrobe,"(39.300778553999997, -76.603732930299998)",39.300778554,-76.6037329303,
527,921 Webb Ct,2213,Latrobe,"(39.300437637400002, -76.604302853899995)",39.3004376374,-76.6043028539,
528,922 Ashland Ct,2214,Latrobe,"(39.300222632100002, -76.603784759600003)",39.3002226321,-76.6037847596,
529,859 McAleer Ct,2215,Latrobe,"(39.299822194800001, -76.604397336999995)",39.2998221948,-76.604397337,
530,943 Wilmot Ct,2216,Latrobe,"(39.299207368099999, -76.603901042800004)",39.2992073681,-76.6039010428,
531,1000 Abbott Ct,2217,Latrobe,"(39.3013607878, -76.602739491299999)",39.3013607878,-76.6027394913,
532,1101 Webb Ct,2218,Latrobe,"(39.300600819000003, -76.602714787799997)",39.300600819,-76.6027147878,
533,1000 Ashland Ct,2219,Latrobe,"(39.300271800099999, -76.602871424200004)",39.3002718001,-76.6028714242,
534,1020 McAleer Ct,2220,Latrobe,"(39.299868547199999, -76.603117526099993)",39.2998685472,-76.6031175261,
535,1001 McAleer Ct,2221,Latrobe,"(39.299715513499997, -76.603547252499993)",39.2997155135,-76.6035472525,
536,1116 McAleer Ct,2222,Latrobe,"(39.300148589199999, -76.602135833000006)",39.3001485892,-76.602135833,
537,1130 McAleer Ct,2223,Latrobe,"(39.299909153199998, -76.602239340200001)",39.2999091532,-76.6022393402,
538,1101 Wilmot Ct,2224,Latrobe,"(39.299287831299999, -76.602728710899996)",39.2992878313,-76.6027287109,
539,901 Valley Ct,2225,Latrobe,"(39.300227999999997, -76.604705999999993)",39.300228,-76.604706,
540,901 Valley Ct,2226,Latrobe,"(39.300227999999997, -76.604705999999993)",39.300228,-76.604706,
541,901 McAleer Ct,2227,Latrobe,"(39.29965, -76.604635999999999)",39.29965,-76.604636,
542,200 Spring Ct,2301,Perkins,"(39.288974239799998, -76.598313985600001)",39.2889742398,-76.5983139856,
543,299 Spring Ct,2302,Perkins,"(39.287503727000001, -76.598044038200001)",39.287503727,-76.5980440382,
544,264 Ballou Ct,2303,Perkins,"(39.2880273743, -76.597513632100004)",39.2880273743,-76.5975136321,
545,229 Ballou Ct,2304,Perkins,"(39.288607452299999, -76.597212806200005)",39.2886074523,-76.5972128062,
546,269 Dallas Ct,2305,Perkins,"(39.288149116, -76.596439407899993)",39.288149116,-76.5964394079,
547,231 Mason Ct,2306,Perkins,"(39.288642230000001, -76.595773403099997)",39.28864223,-76.5957734031,
548,299 Mason Ct,2307,Perkins,"(39.2876245462, -76.595752986899996)",39.2876245462,-76.5957529869,
549,295 Mason Ct,2308,Perkins,"(39.2876798677, -76.595630791100007)",39.2876798677,-76.5956307911,
550,200 Herring Ct,2309,Perkins,"(39.289112821300002, -76.595016511099999)",39.2891128213,-76.5950165111,
551,270 Herring Ct,2310,Perkins,"(39.2880371173, -76.595337532200006)",39.2880371173,-76.5953375322,
552,299 Herring Ct,2311,Perkins,"(39.2876651606, -76.594826320099997)",39.2876651606,-76.5948263201,
553,354 Spring Ct,2312,Perkins,"(39.286491394700001, -76.598156452799998)",39.2864913947,-76.5981564528,
554,Community Building,2313,Perkins,"(39.286951707900002, -76.597738824900006)",39.2869517079,-76.5977388249,
555,1413 Gough St,2314,Perkins,"(39.287355871700001, -76.597432644899996)",39.2873558717,-76.5974326449,
556,319 Ballou Ct,2315,Perkins,"(39.287110948600002, -76.597126314299999)",39.2871109486,-76.5971263143,
557,330 Ballou Ct,2316,Perkins,"(39.2868832013, -76.597370629099998)",39.2868832013,-76.5973706291,
558,326 Dallas Ct,2317,Perkins,"(39.287014668899999, -76.596626179500007)",39.2870146689,-76.5966261795,
559,336 Mason Ct,2318,Perkins,"(39.2868506334, -76.596044637199995)",39.2868506334,-76.5960446372,
560,329 Mason Ct,2319,Perkins,"(39.286979638600002, -76.5957165457)",39.2869796386,-76.5957165457,
561,326 Herring Ct,2320,Perkins,"(39.287065456100002, -76.595261173699996)",39.2870654561,-76.5952611737,
562,231 Orleans St,2401,PVG,"(39.294578571199999, -76.604043038100002)",39.2945785712,-76.6040430381,
563,310 Forrest St,2402,PVG,"(39.294542796099996, -76.603084520500005)",39.2945427961,-76.6030845205,
564,1110 New Hope Cir,2403,PVG,"(39.293739504800001, -76.601852599500006)",39.2937395048,-76.6018525995,
565,1021 New Hope Cir,2404,PVG,"(39.293245954500001, -76.602703800300006)",39.2932459545,-76.6027038003,
566,1008 New Hope Cir,2405,PVG,"(39.293911856299999, -76.603234208499998)",39.2939118563,-76.6032342085,
567,1124 Colvin St,2406,PVG,"(39.292945798600002, -76.601830969000005)",39.2929457986,-76.601830969,
568,215 Saint Mathews St,2407,PVG,"(39.293632188799997, -76.603893050799996)",39.2936321888,-76.6038930508,
569,1100 Colvin St,2408,PVG,"(39.292618239699998, -76.603336866999996)",39.2926182397,-76.603336867,
570,SE Corner of N Tot Lot,2409,PVG,"(39.294234879599998, -76.602139996199995)",39.2942348796,-76.6021399962,
571,NW Corner of S Tot Lot,2410,PVG,"(39.293295260000001, -76.602212902399998)",39.29329526,-76.6022129024,
572,SE Corner of W Tot Lot,2411,PVG,"(39.2930222098, -76.603181076499993)",39.2930222098,-76.6031810765,
573,Courtyard Play Area,2412,PVG,"(39.293431252600001, -76.601326081699995)",39.2934312526,-76.6013260817,
574,NE Elderly Bldg Central Ave,2413,PVG,"(39.293473126199999, -76.600139368300006)",39.2934731262,-76.6001393683,
575,NE Community Center,2414,PVG,"(39.293917434000001, -76.601228335399995)",39.293917434,-76.6012283354,
576,SE Elderly Bldg CentralAve,2415,PVG,"(39.292853416200003, -76.600115942800002)",39.2928534162,-76.6001159428,
577,SW Elderly Bldg FayetteSt,2416,PVG,"(39.292815763599997, -76.600696993599996)",39.2928157636,-76.6006969936,
578,Elderly Bldg Court Yard,2417,PVG,"(39.293000499400002, -76.600684489599999)",39.2930004994,-76.6006844896,
579,Youth Center Fayette St,2418,PVG,"(39.291816666700001, -76.602983333300003)",39.2918166667,-76.6029833333,
580,Daycare Center 1106 Fayette St,2419,PVG,"(39.292033634399999, -76.602226701899994)",39.2920336344,-76.6022267019,
581,Daycare Center Play Area,2420,PVG,"(39.292481495899999, -76.601997844699994)",39.2924814959,-76.6019978447,
582,NW Senior Center,2421,PVG,"(39.2934769883, -76.600734129800003)",39.2934769883,-76.6007341298,
583,Greenmount and Madison,2501,Dept of Corrections,"(39.300040108901513, -76.608037511051066)",39.30004010890151,-76.60803751105107,
584,Madison and Constitution,2502,Dept of Corrections,"(39.29889728324023, -76.609951448853508)",39.29889728324023,-76.60995144885351,
585,Monument and Fallsway,2503,Dept of Corrections,"(39.297164133589519, -76.610634628978289)",39.29716413358952,-76.61063462897829,
586,Eager St (Widows Peak),2504,Dept of Corrections,"(39.30137500901742, -76.609774318474194)",39.30137500901742,-76.6097743184742,
587,Warden St Lot,2505,Dept of Corrections,"(39.301928097661524, -76.61026027300305)",39.30192809766152,-76.61026027300305,
588,Fallsway and Eager,2506,Dept of Corrections,"(39.300916139855531, -76.611037617352324)",39.30091613985553,-76.61103761735232,
589,JFX South,2507,Dept of Corrections,"(39.300441691635839, -76.61106079564594)",39.30044169163584,-76.61106079564594,
590,JFX North,2508,Dept of Corrections,"(39.299624613118652, -76.611231166926743)",39.29962461311865,-76.61123116692674,
591,N Charles St and Center St,2601,Midtown,"(39.296588623907333, -76.615371245613787)",39.29658862390733,-76.61537124561379,
592,N Charles St and Madison St,2602,Midtown,"(39.298204874747853, -76.615859643155588)",39.29820487474785,-76.61585964315559,
593,N Charles St and Read Ave,2603,Midtown,"(39.299588925174533, -76.615747008035569)",39.29958892517453,-76.61574700803557,
594,Park Ave and Read St,2604,Midtown,"(39.300242641434217, -76.61862571161997)",39.30024264143422,-76.61862571161997,
595,N Charles St and Eager St,2605,Midtown,"(39.300928290627837, -76.615753753359144)",39.30092829062784,-76.61575375335914,
596,N Charles St and Chase St,2606,Midtown,"(39.302116821383819, -76.61592230885968)",39.30211682138382,-76.61592230885968,
597,N Charles St and E Biddle St,2607,Midtown,"(39.303319497011273, -76.615908899597272)",39.30331949701127,-76.61590889959727,
598,N Charles St and Preston St,2608,Midtown,"(39.304624295025803, -76.616370318828061)",39.3046242950258,-76.61637031882806,
599,N Charles St and Mt Royal Ave,2609,Midtown,"(39.305447692495576, -76.616364223213708)",39.30544769249558,-76.61636422321371,
600,N Charles St and Lanvale St,2610,Midtown,"(39.308870460173502, -76.61610089033239)",39.3088704601735,-76.61610089033239,
601,N Charles St and North Ave,2611,Midtown,"(39.311620738528809, -76.616428653173926)",39.31162073852881,-76.61642865317393,
602,N Charles St and 20th St,2612,Midtown,"(39.313036473695789, -76.616610334390259)",39.31303647369579,-76.61661033439026,
